[
  {
    "vin": "JTEAAAAH1RJ000016",
    "year": 2024,
    "make": "Toyota",
    "model": "Crown",
    "trim": "Platinum",
    "bodyStyle": "Sedan",
    "engine": "2.4L Turbo Hybrid",
    "horsepower": 340,
    "drivetrain": "AWD",
    "transmission": "CVT",
    "fuelType": "Hybrid",
    "mpgCity": 29,
    "mpgHighway": 32,
    "exteriorColor": "Bronze Age",
    "interiorColor": "Black Leather",
    "stockNumber": "CRO-PLA-0016",
    "msrp": 54600,
    "dealerPrice": 53350,
    "features": [
      "Heated & Ventilated Seats",
      "Head-Up Display",
      "Panoramic Roof",
      "11-Speaker JBL Audio",
      "Advanced Park Assist"
    ],
    "dimensions": {
      "length": "194.1 in",
      "width": "72.4 in",
      "height": "60.6 in",
      "wheelbase": "112.2 in"
    },
    "status": "In Stock",
    "images": [
      "https://example.com/images/crown-platinum-front.jpg",
      "https://example.com/images/crown-platinum-interior.jpg"
    ],
    "location": {
      "city": "Los Angeles",
      "state": "CA",
      "zip": "90012"
    },
    "dealership": {
      "name": "Toyota of Hollywood",
      "address": "6000 Hollywood Blvd",
      "city": "Los Angeles",
      "state": "CA",
      "zip": "90028",
      "phone": "(323) 555-8765"
    },
    "dateAdded": "2025-10-18T12:34:00Z"
  },
  {
    "vin": "5TDAAAB5RS000017",
    "year": 2024,
    "make": "Toyota",
    "model": "Sequoia",
    "trim": "Capstone",
    "bodyStyle": "SUV",
    "engine": "3.4L Twin-Turbo V6 Hybrid",
    "horsepower": 437,
    "drivetrain": "4WD",
    "transmission": "10-speed automatic",
    "fuelType": "Hybrid",
    "mpgCity": 20,
    "mpgHighway": 24,
    "exteriorColor": "Supersonic Red",
    "interiorColor": "White Semi-Aniline Leather",
    "stockNumber": "SEQ-CAP-0017",
    "msrp": 79900,
    "dealerPrice": 78250,
    "features": [
      "Power-Deployable Running Boards",
      "Heated and Ventilated Seats",
      "Digital Rearview Mirror",
      "14-Inch Touchscreen",
      "Premium JBL Audio"
    ],
    "dimensions": {
      "length": "208.1 in",
      "width": "79.6 in",
      "height": "74.5 in",
      "wheelbase": "122.0 in"
    },
    "status": "In Stock",
    "images": [
      "https://example.com/images/sequoia-capstone-front.jpg",
      "https://example.com/images/sequoia-capstone-interior.jpg"
    ],
    "location": {
      "city": "Houston",
      "state": "TX",
      "zip": "77007"
    },
    "dealership": {
      "name": "Toyota of Katy",
      "address": "21555 Katy Fwy",
      "city": "Katy",
      "state": "TX",
      "zip": "77450",
      "phone": "(281) 555-4400"
    },
    "dateAdded": "2025-10-18T12:34:00Z"
  },
  {
    "vin": "JTJFAECA0P9000018",
    "year": 2023,
    "make": "Toyota",
    "model": "GR Supra",
    "trim": "3.0 Premium",
    "bodyStyle": "Coupe",
    "engine": "3.0L Turbo I6",
    "horsepower": 382,
    "drivetrain": "RWD",
    "transmission": "8-speed automatic",
    "fuelType": "Gasoline",
    "mpgCity": 23,
    "mpgHighway": 31,
    "exteriorColor": "Nitro Yellow",
    "interiorColor": "Black Alcantara",
    "stockNumber": "SUP-30P-0018",
    "msrp": 56500,
    "dealerPrice": 55300,
    "features": [
      "Adaptive Variable Suspension",
      "Brembo Brakes",
      "Heads-Up Display",
      "Wireless CarPlay",
      "Sport Seats"
    ],
    "dimensions": {
      "length": "172.5 in",
      "width": "73.0 in",
      "height": "50.9 in",
      "wheelbase": "97.2 in"
    },
    "status": "In Stock",
    "images": [
      "https://example.com/images/grsupra-premium-front.jpg",
      "https://example.com/images/grsupra-premium-interior.jpg"
    ],
    "location": {
      "city": "Miami",
      "state": "FL",
      "zip": "33130"
    },
    "dealership": {
      "name": "Toyota of North Miami",
      "address": "16600 NW 2nd Ave",
      "city": "Miami",
      "state": "FL",
      "zip": "33169",
      "phone": "(305) 555-2244"
    },
    "dateAdded": "2025-10-18T12:34:00Z"
  },
  {
    "vin": "JT8BH45G2R9000019",
    "year": 2024,
    "make": "Toyota",
    "model": "GR86",
    "trim": "Premium",
    "bodyStyle": "Coupe",
    "engine": "2.4L H4",
    "horsepower": 228,
    "drivetrain": "RWD",
    "transmission": "6-speed manual",
    "fuelType": "Gasoline",
    "mpgCity": 20,
    "mpgHighway": 27,
    "exteriorColor": "Neptune Blue",
    "interiorColor": "Black/Red Cloth",
    "stockNumber": "GR8-PRE-0019",
    "msrp": 31100,
    "dealerPrice": 30400,
    "features": [
      "Heated Front Seats",
      "Torsen Limited-Slip Differential",
      "8-Inch Touchscreen",
      "Apple CarPlay & Android Auto",
      "Performance Tires"
    ],
    "dimensions": {
      "length": "167.9 in",
      "width": "69.9 in",
      "height": "51.6 in",
      "wheelbase": "101.4 in"
    },
    "status": "In Stock",
    "images": [
      "https://example.com/images/gr86-premium-front.jpg",
      "https://example.com/images/gr86-premium-interior.jpg"
    ],
    "location": {
      "city": "Atlanta",
      "state": "GA",
      "zip": "30308"
    },
    "dealership": {
      "name": "World Toyota",
      "address": "5800 Peachtree Blvd",
      "city": "Atlanta",
      "state": "GA",
      "zip": "30341",
      "phone": "(770) 555-7070"
    },
    "dateAdded": "2025-10-18T12:34:00Z"
  },
  {
    "vin": "5TDJX4GN6P9000020",
    "year": 2023,
    "make": "Toyota",
    "model": "Highlander",
    "trim": "XLE",
    "bodyStyle": "SUV",
    "engine": "2.4L Turbo I4",
    "horsepower": 265,
    "drivetrain": "FWD",
    "transmission": "8-speed automatic",
    "fuelType": "Gasoline",
    "mpgCity": 22,
    "mpgHighway": 29,
    "exteriorColor": "Blueprint",
    "interiorColor": "Gray SofTex",
    "stockNumber": "HIG-XLE-0020",
    "msrp": 41950,
    "dealerPrice": 40800,
    "features": [
      "Power Liftgate",
      "Wireless Charging",
      "Heated Front Seats",
      "Second-Row Captain's Chairs",
      "Toyota Safety Sense 2.5+"
    ],
    "dimensions": {
      "length": "194.9 in",
      "width": "76.0 in",
      "height": "68.1 in",
      "wheelbase": "112.2 in"
    },
    "status": "In Stock",
    "images": [
      "https://example.com/images/highlander-xle-front.jpg",
      "https://example.com/images/highlander-xle-interior.jpg"
    ],
    "location": {
      "city": "Charlotte",
      "state": "NC",
      "zip": "28208"
    },
    "dealership": {
      "name": "Toyota of North Charlotte",
      "address": "13429 Statesville Rd",
      "city": "Huntersville",
      "state": "NC",
      "zip": "28078",
      "phone": "(704) 555-8181"
    },
    "dateAdded": "2025-10-18T12:34:00Z"
  }
]
